     2.20           OBSERVATION DATA    GPS                 RINEX VERSION / TYPE
gps1x2rnx           operator            2023-07-06 23:54:17 PGM / RUN BY / DATE
GRACE C                                                     MARKER NAME
GRACE C             NASA                                    OBSERVER / AGENCY
RECNUM              RECTYPE             RECVERS             REC # / TYPE / VERS
ANTNUM              ANTTYPE                                 ANT # / TYPE
        0.0000        0.0000        0.0000                  APPROX POSITION XYZ
        0.0000        0.0000        0.0000                  ANTENNA: DELTA H/E/N
     1     1     0                                          WAVELENGTH FACT L1/2
     9    L1    L2    C1    P1    P2    LA    SA    S1    S2# / TYPES OF OBSERV
    10                                                      INTERVAL
  2023    06    21    06    00   00.000000      GPS         TIME OF FIRST OBS
SNR is mapped to signal strength [0,1,2-9]                  COMMENT
 SNR: >500 >100  >50  >10   >5   >3  >1  >0  bad  n/a       COMMENT
 sig:    9    8    7    6    5    4   3   2    1    0       COMMENT
 Loss of Lock Indicator is set for all phase observations   COMMENT
 in case a phase break/cycle slip is detected.              COMMENT
 Loss of Lock Indicator is also set at acquisition of a PRN COMMENT
 Undetected cycle slips may remain in this file.            COMMENT
                                                            END OF HEADER
 23 06 21 06 00 00.0000000  0  8 02 06 07 09 14 17 19 30
 123971759.16446  96601375.13346  23591042.22448  23591040.71146  23591041.47846
 123971765.62748       146.00048        24.00046        44.00046
 119571946.84346  93172957.33348  22753787.30148  22753787.17046  22753791.76648
 119571946.34148       225.00048        39.00046       167.00048
 109243272.76948  85124639.44348  20788301.27749  20788300.89248  20788301.81148
 109243275.26949       613.00049       270.00048       451.00048
 123598812.76746  96310769.40148  23520077.17048  23520076.42146  23520081.04248
 123598815.26048       167.00048        26.00046       116.00048
 116879875.38248  91075234.48848  22241500.25948  22241500.01348  22241500.99048
 116879875.86648       303.00048       119.00048       113.00048
 105199152.18449  81973382.87849  20018727.00549  20018726.66049  20018727.22949
 105199154.68149       699.00049      1564.00049      2169.00049
 108141372.75848  84266012.55048  20578618.28949  20578616.84048  20578616.87048
 108141382.25749       553.00049       282.00048       445.00048
 106336466.47749  82859616.78649  20235150.03749  20235149.44949  20235152.71649
 106336469.97049       862.00049       516.00049       699.00049
 23 06 21 06 00 10.0000000  0  8 02 06 07 09 14 17 19 30
 123754439.91346  96432035.78946  23549687.32348  23549686.46546  23549686.61446
 123754446.41048       148.00048        26.00046        45.00046
 119890248.24746  93420984.48748  22814357.83448  22814357.77746  22814362.51748
 119890247.75448       220.00048        37.00046       160.00048
 109337872.03948  85198353.24948  20806302.80849  20806302.47748  20806303.40348
 109337874.54149       610.00049       266.00048       445.00048
 124007205.21846  96628997.30648  23597791.45148  23597790.71646  23597795.55848
 124007207.70448       162.00048        25.00046       109.00048
 116538500.69648  90809228.45448  22176538.44448  22176538.32148  22176539.38848
 116538501.18148       311.00048       127.00048       120.00048
 105123290.43549  81914269.93549  20004290.88649  20004290.56849  20004291.11649
 105123292.93349       702.00049      1578.00049      2211.00049
 108182820.04448  84298309.23048  20586505.30049  20586503.93448  20586503.90948
 108182829.54149       550.00049       279.00048       439.00048
 106208363.69249  82759796.55049  20210772.78549  20210772.17349  20210775.43749
 106208367.18649       864.00049       521.00049       710.00049
 23 06 21 06 00 20.0000000  0  8 02 06 07 09 14 17 19 30
 123538571.75146  96263827.10646  23508608.85748  23508607.91746  23508608.03146
 123538578.23448       152.00048        26.00046        47.00046
 120210377.54746  93670435.91048  22875276.36448  22875276.53746  22875281.02148
 120210377.05448       214.00048        34.00046       154.00048
 109438700.45848  85276920.93248  20825489.82349  20825489.42848  20825490.29748
 109438702.95849       608.00049       262.00048       439.00048
 124417292.88846  96948546.11248  23675828.92448  23675827.87346  23675832.63048
 124417295.38048       157.00048        25.00046       103.00048
 116199920.60948  90545400.01148  22112108.72148  22112108.41148  22112109.39448
 116199921.08648       319.00048       132.00048       128.00048
 105051696.78349  81858482.78449  19990666.99849  19990666.66949  19990667.18949
 105051699.28149       706.00049      1595.00049      2257.00049
 108228077.37448  84333574.77648  20595117.34649  20595116.04248  20595116.02448
 108228086.87149       545.00049       275.00048       433.00048
 106087012.19249  82665237.05249  20187680.26249  20187679.65549  20187682.92049
 106087015.68649       867.00049       522.00049       716.00049
 23 06 21 06 00 30.0000000  0  8 02 06 07 09 14 17 19 30
 123324178.69646  96096767.89647  23467811.10648  23467809.49546  23467810.11947
 123324185.20448       155.00048        27.00046        51.00047
 120532288.47846  93921275.58348  22936534.09548  22936534.11646  22936538.74448
 120532287.95448       208.00048        34.00046       148.00048
 109545722.18648  85360314.57148  20845855.24949  20845854.92448  20845855.77448
 109545724.68649       603.00049       260.00048       433.00048
 124828997.37446  97269354.77047  23754173.26648  23754172.70346  23754177.27247
 124828999.87448       151.00048        23.00046        98.00047
 115864204.62148  90283803.33848  22048223.96248  22048223.80448  22048224.80748
 115864205.10548       329.00048       140.00048       135.00048
 104984390.33049  81806036.31149  19977858.87249  19977858.59249  19977859.08549
 104984392.82849       709.00049      1606.00049      2302.00049
 108277140.58148  84371805.94148  20604453.76349  20604452.32948  20604452.32348
 108277150.07849       541.00049       269.00048       429.00048
 105972452.34949  82575969.75349  20165880.14749  20165879.57849  20165882.79249
 105972455.84449       874.00049       529.00049       724.00049
 23 06 21 06 00 40.0000000  0  8 02 06 07 09 14 17 19 30
 123111284.73946  95930876.75047  23427298.55448  23427297.14046  23427297.48947
 123111291.23548       157.00048        28.00046        52.00047
 120855934.63546  94173467.45748  22998121.95348  22998122.08246  22998126.37048
 120855934.16148       203.00048        33.00046       142.00048
 109658899.49948  85448504.76048  20867392.10649  20867391.81548  20867392.59048
 109658901.99949       601.00049       259.00048       429.00048
 125242240.68146  97591362.50447  23832810.93648  23832810.01846  23832815.00847
 125242243.18348       145.00048        23.00046        90.00047
 115531422.31448  90024492.62248  21984897.47248  21984897.26048  21984898.26848
 115531422.79748       340.00048       151.00048       144.00048
 104921389.14949  81756944.58149  19965870.17249  19965869.78749  19965870.26149
 104921391.64649       710.00049      1615.00049      2343.00049
 108330004.68648  84412998.84348  20614513.42149  20614512.01048  20614511.95948
 108330014.18449       536.00049       265.00048       421.00048
 105864722.28449  82492024.34549  20145379.79049  20145379.11649  20145382.34249
 105864725.77949       883.00049       541.00049       731.00049
 23 06 21 06 00 50.0000000  0  8 02 06 07 09 14 17 19 30
 122899913.74746  95766172.33747  23387075.73248  23387074.44646  23387074.74147
 122899920.27548       162.00048        30.00046        54.00047
 121181269.93946  94426975.47748  23060031.21048  23060031.13846  23060035.66748
 121181269.43348       197.00048        31.00046       137.00048
 109778192.90748  85541460.71848  20890092.91649  20890092.54148  20890093.32148
 109778195.40649       599.00049       255.00048       426.00048
 125656945.37146  97914508.97947  23911726.66148  23911725.39646  23911730.81247
 125656947.87448       140.00048        24.00046        85.00047
 115201643.28448  89767522.10548  21922142.65748  21922142.24248  21922143.08148
 115201643.76748       353.00048       162.00048       152.00048
 104862710.38949  81711220.96049  19954703.90149  19954703.53049  19954703.97449
 104862712.88749       712.00049      1616.00049      2374.00049
 108386663.93948  84457148.99448  20625295.26949  20625293.86648  20625293.78248
 108386673.43649       531.00049       262.00048       416.00048
 105763857.91649  82413428.81749  20126185.80849  20126185.24149  20126188.41949
 105763861.41249       890.00049       552.00049       740.00049
 23 06 21 06 01 00.0000000  0  8 02 06 07 09 14 17 19 30
 122690089.70046  95602673.28147  23347147.23248  23347146.13446  23347146.37847
 122690096.20948       165.00048        29.00046        57.00047
 121508248.26846  94681763.78848  23122252.97348  23122252.75446  23122257.68948
 121508247.77448       192.00048        30.00046       130.00048
 109903561.15448  85639150.30548  20913949.63849  20913949.28048  20913950.05948
 109903563.65149       595.00049       253.00048       425.00048
 126073034.62046  98238734.28647  23990905.70048  23990904.80446  23990909.87347
 126073037.09648       134.00048        21.00046        79.00047
 114874937.23648  89512946.10348  21859972.33948  21859972.15448  21859972.92348
 114874937.71848       367.00048       173.00048       161.00048
 104808370.42749  81668878.21049  19944363.27149  19944362.91549  19944363.34949
 104808372.92449       713.00049      1615.00049      2410.00049
 108447111.82048  84504251.31548  20636798.02949  20636796.61048  20636796.54048
 108447121.31949       528.00049       260.00048       413.00048
 105669892.93349  82340209.42549  20108304.84049  20108304.25449  20108307.40849
 105669896.42749       898.00049       561.00049       753.00049
 23 06 21 06 01 10.0000000  0  8 02 06 07 09 14 17 19 30
 122481836.40446  95440398.20647  23307518.06948  23307516.77846  23307516.76047
 122481842.92948       166.00048        29.00046        58.00047
 121836823.83246  94937796.68748  23184778.75148  23184778.42846  23184783.47148
 121836823.35148       187.00048        28.00046       126.00048
 110034961.07048  85741539.89448  20938954.24349  20938953.81948  20938954.59448
 110034963.57149       591.00049       247.00048       424.00048
 126490432.07246  98563978.99847  24070334.01648  24070333.51446  24070337.95547
 126490434.57448       129.00048        21.00046        71.00047
 114551373.86448  89260818.93248  21798400.18448  21798399.96348  21798400.70948
 114551374.34848       380.00048       187.00048       165.00048
 104758384.52249  81629928.22649  19934851.18349  19934850.84649  19934851.27949
 104758387.01949       712.00049      1618.00049      2432.00049
 108511341.26048  84554300.29348  20649020.44449  20649019.03948  20649018.90848
 108511350.76049       527.00049       256.00048       406.00048
 105582858.72349  82272390.63349  20091742.72549  20091742.12749  20091745.28349
 105582862.21749       903.00049       564.00049       765.00049
 23 06 21 06 01 20.0000000  0  8 02 06 07 09 14 17 19 30
 122275177.59446  95279365.53447  23268192.01648  23268190.65246  23268190.88447
 122275184.10148       171.00048        29.00046        61.00047
 122166950.87546  95195038.48848  23247599.96648  23247600.09146  23247604.52248
 122166950.37648       181.00048        29.00046       119.00048
 110172347.84248  85848594.55748  20965097.98949  20965097.64748  20965098.40848
 110172350.34349       585.00049       244.00048       422.00048
 126909062.01746  98890184.05447  24149996.97348  24149996.46146  24150000.90047
 126909064.51948       122.00048        21.00046        67.00047
 114231022.76448  89011194.81548  21737439.27048  21737439.09348  21737439.83848
 114231023.24848       394.00048       203.00048       175.00048
 104712767.01949  81594382.18849  19926170.40149  19926170.08649  19926170.48249
 104712769.51549       713.00049      1617.00049      2451.00049
 108579344.22348  84607289.67148  20661960.95849  20661959.49548  20661959.36748
 108579353.71649       524.00049       251.00048       399.00048
 105502784.24649  82209995.00349  20076505.06649  20076504.43349  20076507.54849
 105502787.74249       906.00049       569.00049       778.00049
 23 06 21 06 01 30.0000000  0  8 02 06 07 09 14 17 19 30
 122070136.98846  95119593.79847  23229174.02848  23229172.35846  23229172.62247
 122070143.48148       174.00048        28.00046        61.00047
 122498583.93246  95453453.80848  23310707.57948  23310707.87246  23310712.26148
 122498583.42648       177.00048        28.00046       114.00048
 110315674.98848  85960278.08448  20992372.23249  20992371.89348  20992372.62648
 110315677.48949       580.00049       240.00048       422.00048
 127328849.36646  99217290.97047  24229879.69348  24229879.25046  24229884.00647
 127328851.87748       119.00048        21.00046        60.00047
 113913953.62448  88764128.06748  21677102.93548  21677102.72948  21677103.48548
 113913954.10748       406.00048       214.00048       184.00048
 104671531.30249  81562250.52649  19918323.44749  19918323.13149  19918323.53449
 104671533.80049       712.00049      1615.00049      2467.00049
 108651111.97448  84663212.65448  20675617.89049  20675616.43648  20675616.32348
 108651121.47049       519.00049       248.00048       399.00048
 105429696.19049  82153043.33449  20062596.79749  20062596.19349  20062599.31749
 105429699.68549       908.00049       570.00049       791.00049
 23 06 21 06 01 40.0000000  0  8 02 06 07 09 14 17 19 30
 121866738.26646  94961101.46347  23190468.24148  23190467.23046  23190466.92947
 121866744.76348       178.00048        31.00046        64.00047
 122831677.64246  95713007.30448  23374093.42848  23374093.04846  23374097.99748
 122831677.12848       171.00048        27.00046       108.00048
 110464894.38248  86076552.96548  21020767.65349  21020767.34148  21020768.12348
 110464896.87949       574.00049       231.00048       419.00048
 127749719.60146  99545241.66947  24309968.53348  24309967.99846  24309973.01847
 127749722.10948       112.00048        21.00046        57.00047
 113600235.93748  88519672.83348  21617404.33448  21617404.09648  21617404.91648
 113600236.42148       416.00048       224.00048       192.00048
 104634689.76049  81533542.88749  19911312.79049  19911312.38049  19911312.76049
 104634692.25849       712.00049      1612.00049      2474.00049
 108726634.92048  84722061.74648  20689989.33549  20689987.98748  20689987.79748
 108726644.41849       516.00049       244.00048       393.00048
 105363618.77749  82101554.49649  20050022.63049  20050022.04049  20050025.13849
 105363622.27149       915.00049       575.00049       796.00049
 23 06 21 06 01 50.0000000  0  8 02 06 07 09 14 17 19 30
 121665005.00746  94803906.84847  23152079.81248  23152078.40746  23152078.22547
 121665011.48648       180.00048        32.00046        64.00047
 123166186.83346  95973663.79048  23437748.31248  23437748.02046  23437752.98748
 123166186.33248       165.00048        25.00046       103.00048
 110619956.15948  86197380.34148  21050274.97449  21050274.58648  21050275.33848
 110619958.65849       566.00049       230.00048       414.00048
 128171598.86646  99873978.57847  24390249.81948  24390248.67446  24390254.14047
 128171601.33348       108.00048        22.00046        51.00047
 113289939.17948  88277883.24448  21558356.73348  21558356.52748  21558357.32048
 113289939.66348       424.00048       231.00048       200.00048
 104602253.83349  81508268.18749  19905140.29649  19905140.00149  19905140.36849
 104602256.33049       712.00049      1613.00049      2485.00049
 108805902.87948  84783829.02348  20705073.42749  20705072.09948  20705071.99248
 108805912.37649       513.00049       241.00048       388.00048
 105304573.83749  82055545.49949  20038786.73249  20038786.09649  20038789.19549
 105304577.33149       919.00049       587.00049       798.00049
 23 06 21 06 02 00.0000000  0  8 02 06 07 09 14 17 19 30
 121464960.78146  94648028.36347  23114012.45348  23114011.35046  23114011.07747
 121464967.26748       185.00048        32.00046        68.00047
 123502066.52546  96235388.17147  23501664.29148  23501663.89946  23501668.69847
 123502066.03248       160.00048        26.00046        96.00047
 110780809.05148  86322720.26048  21080884.25349  21080883.84848  21080884.64648
 110780811.55049       561.00049       223.00048       408.00048
 128594413.74846 100203444.57046  24470708.21748  24470708.02146  24470713.38346
 128594416.25148       103.00048        20.00046        48.00046
 112983132.71548  88038813.35748  21499973.37548  21499973.12148  21499973.91848
 112983133.19748       431.00048       239.00048       210.00048
 104574234.30049  81486434.83049  19899808.36649  19899808.01349  19899808.36849
 104574236.79849       711.00049      1607.00049      2499.00049
 108888904.94848  84848505.99348  20720868.28549  20720866.82548  20720866.65748
 108888914.44649       508.00049       238.00048       385.00048
 105252580.80749  82015031.49049  20028892.69049  20028892.13649  20028895.20549
 105252584.30249       923.00049       586.00049       796.00049
 23 06 21 06 02 10.0000000  0  8 02 06 07 09 14 17 19 30
 121266629.00946  94493484.26047  23076270.95748  23076269.65646  23076269.55747
 121266635.51148       187.00048        33.00046        70.00047
 123839271.91646  96498145.53047  23565832.26748  23565832.18946  23565837.00247
 123839271.41648       155.00048        26.00046        91.00047
 110947400.18348  86452531.51748  21112585.45449  21112585.11048  21112585.89148
 110947402.68349       555.00049       220.00048       398.00048
 129018091.61446 100533582.96046  24551332.17347  24551331.95846  24551336.69946
 129018094.11347        97.00047        20.00046        44.00046
 112679885.65548  87802517.03348  21442267.33848  21442267.10648  21442267.76148
 112679886.14048       436.00048       249.00048       221.00048
 104550640.18849  81468049.84949  19895318.49349  19895318.16649  19895318.52549
 104550642.68649       711.00049      1609.00049      2500.00049
 108975629.46248  84916083.56048  20737371.36749  20737369.92048  20737369.76848
 108975638.95749       502.00049       232.00048       379.00048
 105207656.53449  81980025.60249  20020343.91049  20020343.31049  20020346.32349
 105207660.03049       925.00049       592.00049       791.00049
 23 06 21 06 02 20.0000000  0  8 02 06 07 09 14 17 19 30
 121070033.07246  94340292.74547  23038859.86948  23038858.52946  23038858.51947
 121070039.57448       192.00048        35.00046        73.00047
 124177758.46746  96761901.18347  23630244.26948  23630244.16546  23630248.85047
 124177757.95448       148.00048        24.00046        86.00047
 111119675.16748  86586771.76048  21145368.27249  21145367.92548  21145368.70348
 111119677.66649       549.00049       211.00048       392.00048
 129442560.41546 100864337.64746  24632105.97147  24632105.72246  24632110.20146
 129442562.91047        93.00047        20.00046        42.00046
 112380267.03548  87569048.05648  21385251.75848  21385251.51848  21385252.22648
 112380267.51748       443.00048       254.00048       232.00048
 104531479.82549  81453119.73749  19891672.42349  19891672.04149  19891672.38249
 104531482.32249       712.00049      1608.00049      2500.00049
 109066064.00148  84986552.05048  20754580.45748  20754579.03748  20754578.87948
 109066073.49848       500.00048       228.00048       371.00048
 105169815.48349  81950539.10849  20013143.01549  20013142.37049  20013145.39649
 105169818.98049       929.00049       594.00049       786.00049
 23 06 21 06 02 30.0000000  0  9 01 02 06 07 09 14 17 19 30
 118429504.59857  92282745.40358  22536385.46348  22536385.47747  22536388.99448
 118429504.09358       279.00048        59.00047       153.00048
 120875196.27746  94188471.98547  23001783.70048  23001782.35846  23001782.15447
 120875202.78248       196.00048        34.00046        76.00047
 124517481.79646  97026620.54847  23694891.45748  23694891.72346  23694896.16747
 124517481.28348       143.00048        22.00046        82.00047
 111297578.20148  86725397.49448  21179222.13749  21179221.71148  21179222.49148
 111297580.69949       542.00049       210.00048       384.00048
 129867748.67646 101195652.93746  24713017.13447  24713016.05546  24713021.60046
 129867751.18347        89.00047        20.00046        39.00046
 112084345.62248  87338460.02248  21328939.68348  21328939.41348  21328940.11648
 112084346.10848       449.00048       258.00048       243.00048
 104516760.71249  81441650.34049  19888871.36849  19888871.05349  19888871.39349
 104516763.21049       711.00049      1609.00049      2507.00049
 109160195.51448  85059901.30348  20772493.14248  20772491.63748  20772491.46948
 109160205.01048       496.00048       227.00048       366.00048
 105139069.59849  81926581.31349  20007292.16149  20007291.61049  20007294.61549
 105139073.09449       932.00049       597.00049       791.00049
 23 06 21 06 02 40.0000000  0  9 01 02 06 07 09 14 17 19 30
 118310822.67447  92190266.07048  22513801.06148  22513800.91147  22513804.63948
 118310822.17748       283.00048        60.00047       156.00048
 120682141.85746  94038040.08647  22965046.47048  22965045.47446  22965045.03047
 120682148.35848       198.00048        38.00046        78.00047
 124858397.74246  97292269.22047  23759765.72348  23759765.81646  23759770.41247
 124858397.23548       137.00048        23.00046        75.00047
 111481052.08248  86868364.15048  21214136.07849  21214135.70048  21214136.41148
 111481054.58049       537.00049       202.00048       371.00048
 130293585.61446 101527473.63646  24794051.54147  24794050.19046  24794055.61146
 130293588.11447        85.00047        18.00046        34.00046
 111792189.94648  87110806.32448  21273344.29448  21273344.00048  21273344.74048
 111792190.43148       457.00048       265.00048       253.00048
 104506489.32349  81433646.70049  19886916.80449  19886916.43149  19886916.75449
 104506491.82049       711.00049      1607.00049      2490.00049
 109258010.17948  85136120.54248  20791106.53848  20791105.13248  20791104.93148
 109258019.67548       493.00048       223.00048       356.00048
 105115428.26649  81908159.53349  20002793.38849  20002792.77649  20002795.78549
 105115431.76049       934.00049       602.00049       794.00049
 23 06 21 06 02 50.0000000  0 10 01 02 06 07 09 13 14 17 19 30
 118194622.60447  92099720.65148  22491688.89448  22491688.65047  22491692.36448
 118194622.10948       286.00048        61.00047       161.00048
 120490892.91446  93889015.06247  22928653.13448  22928651.69046  22928651.43147
 120490899.42648       202.00048        37.00046        80.00047
 125200462.43146  97558813.01647  23824858.63948  23824858.42246  23824863.38647
 125200461.93448       131.00048        20.00046        71.00047
 111670038.20048  87015626.06048  21250098.95249  21250098.60048  21250099.26648
 111670040.70149       531.00049       199.00048       366.00048
 130720001.09846 101859745.12946  24875195.96147  24875194.97746  24875200.22746
 130720003.56547        80.00047        20.00046        31.00046
 119259891.93856  92929789.54157  22694403.98348  22694402.95246  22694403.94347
 119259897.42458       235.00048        35.00046        64.00047
 111503868.28148  86886140.16948  21218478.41448  21218478.18748  21218478.87448
 111503868.76948       463.00048       276.00048       267.00048
 104500671.01549  81429112.98849  19885809.59549  19885809.21449  19885809.54049
 104500673.51149       710.00049      1602.00049      2472.00049
 109359493.43248  85215198.42248  20810418.10048  20810416.73748  20810416.60148
 109359502.93148       490.00048       221.00048       347.00048
 105098898.39949  81895279.15349  19999647.83249  19999647.21449  19999650.23449
 105098901.89349       936.00049       600.00049       798.00049
 23 06 21 06 03 00.0000000  0 10 01 02 06 07 09 13 14 17 19 30
 118080919.52747  92011120.92548  22470051.82948  22470051.72847  22470055.22948
 118080919.02248       290.00048        63.00047       164.00048
 120301472.41046  93741414.76647  22892607.34548  22892606.44646  22892605.93347
 120301478.90648       206.00048        38.00046        80.00047
 125543632.19146  97826217.89647  23890161.70248  23890161.41546  23890166.65047
 125543631.67848       125.00048        21.00046        65.00047
 111864476.74248  87167136.60148  21287099.31549  21287099.01748  21287099.69248
 111864479.23949       523.00049       195.00048       358.00048
 131146925.49046 102192413.20246  24956436.62547  24956436.08446  24956441.79046
 131146927.99947        76.00047        19.00046        28.00046
 119061720.01346  92775369.96147  22656693.01048  22656692.01046  22656693.06847
 119061725.51348       240.00048        37.00046        66.00047
 111219448.58048  86664514.49748  21164355.07348  21164354.86548  21164355.48748
 111219449.06648       472.00048       290.00048       274.00048
 104499310.20049  81428052.64949  19885550.55649  19885550.24849  19885550.54349
 104499312.69749       709.00049      1598.00049      2458.00049
 109464630.06048  85297123.08948  20830425.01448  20830423.56948  20830423.34948
 109464639.55848       488.00048       217.00048       340.00048
 105089484.35849  81887943.56749  19997856.35749  19997855.77449  19997858.77749
 105089487.85349       935.00049       598.00049       802.00049
 23 06 21 06 03 10.0000000  0 10 01 02 06 07 09 13 14 17 19 30
 117969728.25047  91924478.45448  22448892.73148  22448892.48647  22448896.24048
 117969727.75648       292.00048        64.00047       168.00048
 120113903.18546  93595257.00947  22856914.16548  22856913.07246  22856912.52147
 120113909.66848       211.00048        39.00046        87.00047
 125887863.43246  98094449.90347  23955666.79148  23955665.72046  23955671.57647
 125887862.93848       120.00048        22.00046        60.00047
 112064306.61048  87322848.17448  21325125.78049  21325125.37148  21325126.09848
 112064309.10949       516.00049       188.00048       347.00048
 131574289.96546 102525424.12546  25037762.24247  25037761.00946  25037766.85446
 131574292.46047        72.00047        21.00046        26.00046
 118867713.64746  92624196.25647  22619774.93548  22619773.80946  22619774.74047
 118867719.14148       242.00048        38.00046        69.00047
 110938998.43748  86445981.98548  21110987.04948  21110986.89848  21110987.54948
 110938998.92348       482.00048       302.00048       285.00048
 104502410.24649  81430468.30649  19886140.52349  19886140.13249  19886140.42349
 104502412.74449       708.00049      1587.00049      2433.00049
 109573404.12648  85381882.11648  20851124.14048  20851122.61848  20851122.36348
 109573413.62248       484.00048       217.00048       332.00048
 105087187.96149  81886154.19549  19997419.32949  19997418.75149  19997421.75849
 105087191.45649       931.00049       593.00049       803.00049
 23 06 21 06 03 20.0000000  0 10 01 02 06 07 09 13 14 17 19 30
 117861063.32647  91839804.56048  22428214.44348  22428214.18147  22428217.89248
 117861062.83548       294.00048        65.00047       174.00048
 119928208.08646  93450559.64147  22821577.51648  22821576.42246  22821575.68547
 119928214.57848       215.00048        41.00046        91.00047
 126233113.00446  98363475.37447  24021365.67248  24021364.72446  24021370.56447
 126233112.48648       115.00048        20.00046        56.00047
 112269465.48148  87482712.21348  21364166.06649  21364165.72248  21364166.56148
 112269467.97749       508.00049       184.00048       342.00048
 132002026.21346 102858724.70346  25119157.77247  25119156.03046  25119162.44946
 132002028.69947        68.00047        19.00046        26.00046
 118677925.45046  92476309.44047  22583659.33548  22583658.35846  22583659.09047
 118677930.95348       246.00048        40.00046        70.00047
 110662585.11648  86230595.05348  21058387.36048  21058387.13348  21058387.79648
 110662585.60748       493.00048       313.00048       292.00048
 104509973.44649  81436361.74249  19887579.69749  19887579.33449  19887579.60649
 104509975.94449       705.00049      1577.00049      2419.00049
 109685799.12548  85469462.65748  20872512.05148  20872510.60648  20872510.38248
 109685808.62048       483.00048       214.00048       322.00048
 105092008.50849  81889910.49649  19998336.67949  19998336.04549  19998339.05149
 105092012.00249       927.00049       587.00049       798.00049
 23 06 21 06 03 30.0000000  0 10 01 02 06 07 09 13 14 17 19 30
 117754939.02747  91757110.36848  22408019.64248  22408019.23047  22408023.01448
 117754938.52348       296.00048        65.00047       178.00048
 119744409.80946  93307340.32047  22786601.70848  22786600.57246  22786600.06547
 119744416.30748       219.00048        44.00046        93.00047
 126579337.85946  98633260.83647  24087250.32048  24087249.45246  24087255.28847
 126579337.35748       109.00048        20.00046        52.00047
 112479889.76048  87646679.17048  21404208.56349  21404208.15948  21404208.94748
 112479892.26049       501.00049       178.00048       334.00048
 132430066.64746 103192262.29746  25200611.93947  25200609.20346  25200616.13446
 132430069.13647        65.00047        19.00046        24.00046
 118492407.31746  92331749.92747  22548356.18648  22548355.58446  22548356.01247
 118492412.81048       249.00048        41.00046        73.00047
 110390275.45748  86018405.77048  21006568.53149  21006568.31848  21006568.88548
 110390275.94349       502.00049       327.00048       300.00048
 104522001.12849  81445733.98649  19889868.42049  19889868.09549  19889868.36949
 104522003.62549       701.00049      1559.00049      2415.00049
 109801797.77448  85559851.22748  20894585.83748  20894584.39148  20894584.19848
 109801807.26848       480.00048       211.00048       316.00048
 105103942.75849  81899209.94249  20000607.64749  20000607.03049  20000610.00649
 105103946.25249       923.00049       581.00049       793.00049
 23 06 21 06 03 40.0000000  0 10 01 02 06 07 09 13 14 17 19 30
 117651369.15647  91676406.64548  22388310.71948  22388310.60047  22388314.26948
 117651368.65248       297.00048        66.00047       180.00048
 119562530.87846  93165616.58247  22751991.35148  22751989.70346  22751989.45147
 119562537.38348       223.00048        46.00046        97.00047
 126926495.25846  98903772.94546  24153311.74548  24153311.52746  24153317.00146
 126926494.77248       104.00048        21.00046        47.00046
 112695514.86448  87814698.71248  21445240.69148  21445240.31648  21445241.04648
 112695517.36148       494.00048       171.00048       324.00048
 132858344.24346 103525984.68146  25282110.55547  25282108.11946  25282115.10946
 132858346.75647        60.00047        19.00046        22.00046
 118311210.11646  92190557.35947  22513875.43648  22513874.80646  22513875.51747
 118311215.59748       253.00048        41.00046        75.00047
 110122135.86148  85809465.89348  20955543.16749  20955542.99048  20955543.54248
 110122136.35049       512.00049       339.00048       304.00048
 104538493.54049  81458585.24649  19893006.76649  19893006.47149  19893006.75149
 104538496.03849       697.00049      1536.00049      2414.00049
 109921382.25448  85653033.95448  20917342.14048  20917340.61348  20917340.32048
 109921391.75248       477.00048       209.00048       308.00048
 105122984.97449  81914048.06549  20004231.17049  20004230.61549  20004233.59549
 105122988.46849       922.00049       581.00049       786.00049
 23 06 21 06 03 50.0000000  0 10 01 02 06 07 09 13 14 17 19 30
 117550367.30347  91597703.98648  22369090.84448  22369090.47947  22369094.22548
 117550366.80848       301.00048        70.00047       182.00048
 119382593.70346  93025405.87647  22717750.06848  22717749.13646  22717748.49647
 119382600.17648       226.00048        41.00046        99.00047
 127274542.71646  99174978.55646  24219544.13447  24219542.91946  24219548.54146
 127274542.20747       100.00047        20.00046        43.00046
 112916275.02548  87986719.61348  21487249.88548  21487249.51348  21487250.33648
 112916277.52748       486.00048       166.00048       313.00048
 133286792.71746 103859840.14446  25363641.32547  25363639.00846  25363646.78346
 133286795.19447        57.00047        18.00046        22.00046
 118134383.85646  92052770.74147  22480226.51348  22480225.67946  22480226.46947
 118134389.34748       257.00048        44.00046        78.00047
 109858232.22248  85603826.75448  20905323.99949  20905323.77148  20905324.32048
 109858232.70949       518.00049       345.00048       313.00048
 104559449.89349  81474914.90249  19896994.66549  19896994.30949  19896994.56949
 104559452.38949       692.00049      1516.00049      2417.00049
 110044534.00248  85748996.36248  20940776.94948  20940775.63248  20940775.30448
 110044543.49948       476.00048       207.00048       303.00048
 105149126.78149  81934418.33449  20009205.82749  20009205.20149  20009208.17749
 105149130.27549       923.00049       583.00049       779.00049
 23 06 21 06 04 00.0000000  0  9 01 02 06 07 13 14 17 19 30
 117451946.72347  91521012.70748  22350361.76948  22350361.74847  22350365.32348
 117451946.23448       303.00048        67.00047       186.00048
 119204620.51546  92886725.58148  22683883.00848  22683881.71746  22683881.29448
 119204627.02348       231.00048        46.00046       103.00048
 127623437.95946  99446844.79746  24285936.10447  24285935.49546  24285941.53546
 127623437.44347        94.00047        20.00046        41.00046
 113142103.60748  88162689.93248  21530223.64148  21530223.34648  21530224.08948
 113142106.10948       476.00048       160.00048       303.00048
 117961977.64646  91918428.32147  22447418.80448  22447417.81146  22447418.64047
 117961983.14648       261.00048        43.00046        80.00047
 109598629.99848  85401539.36848  20855923.27449  20855923.05448  20855923.54448
 109598630.48649       524.00049       354.00048       321.00048
 104584868.44349  81494721.59449  19901831.58949  19901831.26549  19901831.53949
 104584870.94049       689.00049      1492.00049      2425.00049
 110171234.01948  85847723.66048  20964887.27648  20964885.78948  20964885.51048
 110171243.51648       474.00048       203.00048       292.00048
 105182357.45049  81960312.39149  20015529.38749  20015528.78949  20015531.73449
 105182360.94549       927.00049       581.00049       774.00049
 23 06 21 06 04 10.0000000  0  9 01 02 06 07 13 14 17 19 30
 117356120.25447  91446342.79048  22332126.72548  22332126.46947  22332130.05648
 117356119.75748       306.00048        71.00047       187.00048
 119028633.48946  92749592.90548  22650393.65648  22650392.56846  22650391.86848
 119028639.99048       234.00048        49.00046       106.00048
 127973138.91746  99719338.86446  24352482.51647  24352480.75346  24352487.35746
 127973138.40847        91.00047        22.00046        37.00046
 113372932.87248  88342556.87748  21574148.92548  21574148.67448  21574149.41648
 113372935.36748       467.00048       154.00048       292.00048
 117794039.62246  91787567.58147  22415461.16948  22415460.42146  22415461.07747
 117794045.11148       264.00048        46.00046        81.00047
 109343393.97648  85202654.21448  20807353.43949  20807353.18248  20807353.68148
 109343394.46749       530.00049       360.00048       331.00048
 104614746.34249  81518003.10449  19907517.11449  19907516.80449  19907517.08449
 104614748.84049       684.00049      1476.00049      2428.00049
 110301462.28148  85949200.24548  20989668.84848  20989667.37248  20989667.06048
 110301471.78048       471.00048       202.00048       290.00048
 105222663.57449  81991719.78849  20023199.39049  20023198.78649  20023201.69449
 105222667.07049       924.00049       581.00049       771.00049
 23 06 21 06 04 20.0000000  0  9 01 02 06 07 13 14 17 19 30
 117262900.45647  91373704.05248  22314387.48848  22314387.38747  22314390.90048
 117262899.95848       309.00048        70.00047       187.00048
 118854654.69346  92614025.09848  22617286.65348  22617285.44146  22617284.85248
 118854661.19648       239.00048        48.00046       107.00048
 128323603.88446  99992428.27346  24419173.35747  24419172.90046  24419178.73146
 128323603.39047        86.00047        19.00046        36.00046
 113608694.14548  88526266.95348  21619013.01548  21619012.53448  21619013.29048
 113608696.64548       460.00048       149.00048       281.00048
 117630616.85946  91660225.22047  22384362.72048  22384362.09346  22384362.59847
 117630622.34848       269.00048        44.00046        83.00047
 109092588.48748  85007221.41848  20759626.69749  20759626.44148  20759627.00748
 109092588.97949       536.00049       368.00048       345.00048
 104649079.72849  81544756.41149  19914050.55749  19914050.23249  19914050.49649
 104649082.22549       680.00049      1461.00049      2423.00049
 110435198.45348  86053410.26048  21015118.08648  21015116.53948  21015116.17948
 110435207.94748       468.00048       201.00048       282.00048
 105270029.40049  82028628.24549  20032212.75449  20032212.16649  20032215.09949
 105270032.89549       921.00049       576.00049       769.00049
 23 06 21 06 04 30.0000000  0  9 01 02 06 07 13 14 17 19 30
 117172299.50247  91303105.96548  22297146.66548  22297146.37647  22297150.02948
 117172299.00848       313.00048        71.00047       189.00048
 118682705.90146  92480039.11048  22584565.88448  22584564.44246  22584563.84448
 118682712.39748       242.00048        50.00046       111.00048
 128674791.35846 100266080.62246  24486002.43647  24486001.63346  24486007.56446
 128674790.85347        83.00047        20.00046        32.00046
 113849317.89148  88713765.94448  21664802.17748  21664801.77248  21664802.50348
 113849320.39248       451.00048       143.00048       269.00048
 117471755.43146  91536437.16847  22354132.50648  22354131.45446  22354132.14247
 117471760.93548       274.00048        46.00046        84.00047
 108846277.17248  84815290.57648  20712755.19049  20712754.92848  20712755.44648
 108846277.66549       542.00049       377.00048       360.00048
 104687863.78749  81574977.77849  19921430.89349  19921430.56249  19921430.85549
 104687866.28549       678.00049      1450.00049      2403.00049
 110572421.50048  86160337.30748  21041230.65548  21041229.25448  21041228.86148
 110572430.99748       466.00048       197.00048       279.00048
 105324436.62849  82071023.50949  20042566.09049  20042565.47849  20042568.42649
 105324440.12149       913.00049       567.00049       771.00049
 23 06 21 06 04 40.0000000  0  9 01 02 06 07 13 14 17 19 30
 117084329.27147  91234557.78648  22280406.40548  22280406.20947  22280409.69948
 117084328.77648       316.00048        71.00047       190.00048
 118512808.85547  92347651.89048  22552235.50648  22552234.07647  22552233.52548
 118512815.36248       247.00048        53.00047       114.00048
 129026660.07546 100540263.82446  24552961.37247  24552959.92046  24552966.35146
 129026659.58647        79.00047        19.00046        31.00046
 114094733.79948  88904999.09048  21711503.25948  21711502.89848  21711503.66348
 114094736.29848       443.00048       137.00048       261.00048
 117317500.36546  91416238.45047  22324778.70548  22324777.65246  22324778.44247
 117317505.84348       277.00048        47.00046        86.00047
 108604523.03748  84626910.78448  20666750.83549  20666750.62148  20666751.11948
 108604523.53049       549.00049       389.00048       377.00048
 104731092.59549  81608662.58649  19929657.07649  19929656.72249  19929656.99149
 104731095.09249       676.00049      1441.00049      2373.00049
 110713109.86048  86269964.60148  21068002.80548  21068001.37848  21068000.95648
 110713119.35648       462.00048       194.00048       276.00048
 105385864.52849  82118889.43149  20054255.40849  20054254.81249  20054257.74849
 105385868.02349       905.00049       557.00049       773.00049
 23 06 21 06 04 50.0000000  0  9 01 02 06 07 13 14 17 19 30
 116999001.23447  91168068.45648  22264168.98048  22264168.67447  22264172.38848
 116999000.72848       319.00048        72.00047       189.00048
 118344985.19747  92216880.29648  22520299.54648  22520298.34547  22520297.62848
 118344991.69848       251.00048        54.00047       117.00048
 129379169.09846 100814945.90246  24620041.78447  24620039.51146  24620046.73646
 129379168.57547        75.00047        19.00046        27.00046
 114344870.63448  89099910.88248  21759102.73648  21759102.38548  21759103.09448
 114344873.13048       434.00048       130.00048       254.00048
 117167895.49946  91299663.29147  22296309.68148  22296308.85846  22296309.42247
 117167900.98748       281.00048        50.00046        85.00047
 108367388.33548  84442130.54748  20621625.67049  20621625.36648  20621625.86848
 108367388.82649       557.00049       395.00048       395.00048
 104778759.30149  81645805.49949  19938727.67149  19938727.35949  19938727.63549
 104778761.79849       674.00049      1433.00049      2323.00049
 110857241.32248  86382274.84048  21095430.11948  21095428.69748  21095428.30548
 110857250.82048       459.00048       193.00048       271.00048
 105454289.93649  82172207.95849  20067276.27049  20067275.71149  20067278.63349
 105454293.43149       900.00049       547.00049       773.00049
 23 06 21 06 05 00.0000000  0  9 01 02 06 07 13 14 17 19 30
 116916326.53847  91103646.68448  22248436.59348  22248436.24747  22248439.80048
 116916326.04348       322.00048        75.00047       193.00048
 118179256.27347  92087740.94848  22488762.15848  22488761.12947  22488760.48848
 118179262.76948       256.00048        56.00047       123.00048
 129732277.64846 101090095.19846  24687236.19347  24687234.27946  24687241.28746
 129732277.16947        72.00047        18.00046        28.00046
 114599656.52748  89298445.32048  21807586.91648  21807586.56148  21807587.24248
 114599659.02648       425.00048       128.00048       245.00048
 117022983.68946  91186745.05147  22268733.77948  22268733.04646  22268733.66047
 117022989.17748       284.00048        50.00046        86.00047
 108134934.66948  84260997.87148  20577391.09249  20577390.86948  20577391.38048
 108134935.16349       564.00049       405.00048       415.00048
 104830856.02549  81686400.37449  19948641.40549  19948641.01749  19948641.28149
 104830858.52249       672.00049      1422.00049      2276.00049
 111004793.09748  86497250.24748  21123508.32348  21123506.85848  21123506.48948
 111004802.59248       455.00048       191.00048       269.00048
 105529687.27549  82230959.15149  20081623.88749  20081623.32449  20081626.27049
 105529690.77149       895.00049       542.00049       773.00049
 23 06 21 06 05 10.0000000  0  9 01 02 06 07 13 14 17 19 30
 116836315.97847  91041300.85848  22233211.01548  22233210.67847  22233214.17848
 116836315.48348       322.00048        78.00047       192.00048
 118015643.27747  91960250.38348  22457627.57548  22457626.57847  22457625.77948
 118015649.77948       261.00048        57.00047       126.00048
 130085945.40646 101365680.18846  24754537.33247  24754535.38546  24754542.36646
 130085944.90747        68.00047        19.00046        24.00046
 114859018.77448  89500545.74348  21856941.98948  21856941.57948  21856942.32248
 114859021.27348       416.00048       123.00048       238.00048
 116882806.58946  91077516.20347  22242058.91748  22242058.24146  22242058.73547
 116882812.08948       288.00048        49.00046        87.00047
 107907222.81748  84083560.11248  20534058.87349  20534058.70148  20534059.23148
 107907223.31049       570.00049       415.00048       430.00048
 104887373.68349  81730440.13449  19959396.27749  19959395.96449  19959396.21449
 104887376.18049       670.00049      1413.00049      2215.00049
 111155741.86448  86614872.66548  21152232.91848  21152231.37948  21152231.05548
 111155751.35848       448.00048       184.00048       264.00048
 105612028.62549  82295121.26149  20097292.91749  20097292.35249  20097295.28349
 105612032.11949       894.00049       538.00049       771.00049
 23 06 21 06 05 20.0000000  0  9 01 02 06 07 13 14 17 19 30
 116758979.94347  90981039.07548  22218494.20448  22218494.06747  22218497.62448
 116758979.43948       326.00048        77.00047       195.00048
 117854167.25847  91834424.98648  22426899.79148  22426898.45747  22426897.89248
 117854173.74448       265.00048        57.00047       129.00048
 130440132.06246 101641669.50446  24821936.56447  24821934.70046  24821941.91446
 130440131.59647        67.00047        19.00046        25.00046
 115122884.10448  89706155.06848  21907153.77848  21907153.46548  21907154.21948
 115122886.60648       407.00048       116.00048       233.00048
 116747404.69246  90972008.28047  22216292.92548  22216292.20246  22216292.55547
 116747410.18048       291.00048        50.00046        88.00047
 107684312.74748  83909864.00448  20491640.48849  20491640.27748  20491640.82748
 107684313.24049       574.00049       419.00048       444.00048
 104948302.49649  81777917.17249  19970990.64049  19970990.31449  19970990.51449
 104948304.99349       667.00049      1403.00049      2157.00049
 111310063.76248  86735123.50548  21181599.32848  21181597.91548  21181597.51248
 111310073.25948       443.00048       179.00048       263.00048
 105701283.67549  82364670.67549  20114277.63049  20114277.01949  20114279.91249
 105701287.16849       889.00049       535.00049       767.00049
 23 06 21 06 05 30.0000000  0  9 01 02 06 07 13 14 17 19 30
 116684328.43847  90922869.13748  22204288.60848  22204288.52447  22204291.83748
 116684327.93848       326.00048        77.00047       199.00048
 117694849.05647  91710281.04248  22396582.42748  22396581.53047  22396580.51448
 117694855.55448       272.00048        60.00047       132.00048
 130794797.82746 101918032.12846  24889427.74147  24889425.56446  24889433.17646
 130794797.35047        62.00047        18.00046        23.00046
 115391178.56948  89915215.66948  21958208.59548  21958208.18448  21958208.99448
 115391181.07248       398.00048       111.00048       225.00048
 116616817.20547  90870251.85147  22191442.81848  22191442.05347  22191442.59647
 116616822.70148       295.00048        54.00047        87.00047
 107466263.56548  83739955.59948  20450147.02349  20450146.85848  20450147.39148
 107466264.06049       579.00049       426.00048       460.00048
 105013631.59949  81828822.99949  19983422.33349  19983422.00049  19983422.19449
 105013634.09649       665.00049      1392.00049      2102.00049
 111467734.42548  86857983.77448  21211603.02848  21211601.58948  21211601.22948
 111467743.92048       437.00048       175.00048       261.00048
 105797419.79149  82439581.96049  20132571.70349  20132571.09849  20132573.99549
 105797423.28549       885.00049       527.00049       759.00049
 23 06 21 06 05 40.0000000  0  9 01 02 06 07 13 14 17 19 30
 116612371.15047  90866798.59348  22190595.45748  22190595.22147  22190598.75148
 116612370.65048       328.00048        79.00047       204.00048
 117537709.30747  91587834.56748  22366679.73148  22366678.68947  22366677.69748
 117537715.81148       276.00048        64.00047       137.00048
 131149903.06746 102194737.17046  24957001.98147  24957000.58546  24957008.30146
 131149902.56147        59.00047        20.00046        22.00046
 115663827.59848  90127669.43348  22010091.96848  22010091.54148  22010092.40248
 115663830.09948       388.00048       106.00048       218.00048
 116491082.14747  90772276.51647  22167516.16948  22167515.48347  22167515.91047
 116491087.64748       299.00048        56.00047        89.00047
 107253133.50348  83573880.27548  20409589.73849  20409589.51448  20409590.02448
 107253133.99949       582.00049       430.00048       472.00048
 105083349.10049  81883148.34749  19996689.10649  19996688.78049  19996688.96049
 105083351.59849       663.00049      1381.00049      2055.00049
 111628728.83348  86983433.96848  21242239.30248  21242237.80648  21242237.40348
 111628738.32948       431.00048       170.00048       257.00048
 105900402.08449  82519827.92249  20152168.53149  20152167.94749  20152170.82849
 105900405.57849       879.00049       522.00049       749.00049
 23 06 21 06 05 50.0000000  0 10 01 02 06 07 13 14 17 19 21 30
 116543117.34747  90812834.65748  22177416.92648  22177416.54747  22177420.12748
 116543116.85148       329.00048        78.00047       205.00048
 117382768.49747  91467101.53848  22337195.28248  22337194.26647  22337193.36448
 117382774.99148       281.00048        64.00047       139.00048
 131505408.35346 102471753.92946  25024653.19147  25024651.91246  25024658.15546
 131505407.85047        55.00047        20.00046        21.00046
 115940756.17548  90343457.90448  22062789.68148  22062789.46748  22062790.22348
 115940758.67848       379.00048       101.00048       213.00048
 116370236.41447  90678111.04147  22144519.90348  22144519.28447  22144519.69647
 116370241.91848       302.00048        56.00047        88.00047
 107044979.86948  83411682.68648  20369979.36149  20369979.15448  20369979.68748
 107044980.36449       586.00049       435.00048       482.00048
 105157442.19549  81940883.24649  20010788.64249  20010788.23049  20010788.38649
 105157444.69249       661.00049      1376.00049      2008.00049
 111793021.47748  87111454.20648  21273503.16548  21273501.66548  21273501.30848
 111793030.97648       425.00048       164.00048       255.00048
 119426961.40956  93059971.82956  22726196.57948  22726195.26646  22726195.75046
 119426968.88458       189.00048        37.00046        47.00046
 106010193.42449  82605379.64149  20173061.09849  20173060.52249  20173063.40449
 106010196.91849       872.00049       512.00049       737.00049
 23 06 21 06 06 00.0000000  0 11 01 02 06 07 13 14 15 17 19 21 30
 116476575.95147  90760984.28748  22164754.40948  22164754.15147  22164757.63548
 116476575.45648       330.00048        79.00047       209.00048
 117230046.92747  91348097.81148  22308133.32948  22308132.14247  22308131.38648
 117230053.41848       285.00048        66.00047       143.00048
 131861274.64246 102749051.95946  25092371.91947  25092372.07446  25092378.11646
 131861274.14147        53.00047        19.00046        19.00046
 116221888.74047  90562522.20148  22116287.49548  22116287.09747  22116288.01948
 116221891.24448       369.00048        98.00047       206.00048
 116254315.52047  90587783.09447  22122460.99748  22122460.23547  22122460.58847
 116254321.00548       306.00048        56.00047        91.00047
 106841858.98748  83253406.73248  20331326.70449  20331326.53148  20331327.01148
 106841859.48349       590.00049       440.00048       493.00048
 131352831.99256 102352863.05657  24995613.24047  24995612.86746  24995614.61247
 131352833.47257        94.00047        33.00046        58.00047
 105235897.00649  82002016.88449  20025718.00949  20025717.65649  20025717.82249
 105235899.50349       661.00049      1366.00049      1965.00049
 111960586.44548  87242024.30348  21305389.61248  21305388.22248  21305387.85948
 111960595.94248       419.00048       159.00048       253.00048
 119237431.38146  92912286.21746  22690130.01248  22690129.02146  22690129.56046
 119237438.87148       193.00048        38.00046        47.00046
 106126754.46649  82696206.46049  20195241.92649  20195241.33749  20195244.18749
 106126757.96049       864.00049       505.00049       724.00049
 23 06 21 06 06 10.0000000  0 10 01 02 07 13 14 15 17 19 21 30
 116412755.51547  90711254.15648  22152609.71048  22152609.61647  22152612.94548
 116412755.01548       331.00048        79.00047       215.00048
 117079564.71247  91230839.05548  22279497.49948  22279496.30547  22279495.45548
 117079571.20648       289.00048        69.00047       146.00048
 116507149.36647  90784803.17648  22170570.86748  22170570.41947  22170571.29648
 116507151.86448       360.00048        91.00047       199.00048
 116143353.62647  90501319.31747  22101345.57648  22101344.92847  22101345.28347
 116143359.11048       308.00048        58.00047        90.00047
 106643826.16548  83099095.49549  20293642.27449  20293642.07748  20293642.58449
 106643826.66149       597.00049       447.00048       507.00049
 131086478.80146 102145315.32647  24944927.86847  24944927.58846  24944928.91647
 131086480.31247        97.00047        34.00046        59.00047
 105318698.79849  82066537.79749  20041474.70749  20041474.31549  20041474.44549
 105318701.29549       659.00049      1361.00049      1922.00049
 112131397.29048  87375123.66248  21337893.81648  21337892.45948  21337892.08448
 112131406.78548       414.00048       157.00048       249.00048
 119049760.12346  92766049.00646  22654417.08148  22654416.06946  22654416.93746
 119049767.63248       197.00048        39.00046        49.00046
 106250043.66748  82792275.99849  20218703.07749  20218702.45948  20218705.31349
 106250047.16249       859.00049       494.00048       709.00049
 23 06 21 06 06 20.0000000  0 10 01 02 07 13 14 15 17 19 21 30
 116351664.19647  90663650.66048  22140984.46048  22140984.26347  22140987.49448
 116351663.70148       332.00048        80.00047       219.00048
 116931341.73947  91115340.75348  22251291.43248  22251290.31647  22251289.39448
 116931348.23648       291.00048        70.00047       146.00048
 116796461.53747  91010241.20448  22225625.13148  22225624.72247  22225625.60748
 116796464.03448       350.00048        87.00047       192.00048
 116037383.63147  90418745.33247  22081180.11348  22081179.61147  22081179.89547
 116037389.11848       309.00048        57.00047        94.00047
 106450935.67248  82948791.27249  20256936.36149  20256936.21148  20256936.68449
 106450936.16849       601.00049       454.00048       525.00049
 130822453.12046 101939581.21247  24894685.29047  24894685.22046  24894686.19347
 130822454.61747        99.00047        35.00046        64.00047
 105405831.80149  82134433.67749  20058055.51949  20058055.14149  20058055.26749
 105405834.29849       657.00049      1354.00049      1885.00049
 112305427.08148  87510731.29548  21371010.73948  21371009.20048  21371008.88148
 112305436.57948       410.00048       154.00048       245.00048
 118863971.07346  92621278.41947  22619062.71148  22619061.11146  22619062.18847
 118863978.55648       201.00048        41.00046        54.00047
 106380017.39648  82893554.26349  20243436.21749  20243435.60748  20243438.44249
 106380020.89149       850.00049       483.00048       694.00049
 23 06 21 06 06 30.0000000  0 10 01 02 07 13 14 15 17 19 21 30
 116293309.71847  90618179.74848  22129879.80248  22129879.58847  22129882.91148
 116293309.22048       332.00048        80.00047       220.00048
 116785397.61147  91001618.15948  22223519.23648  22223518.04447  22223517.12648
 116785404.11048       295.00048        71.00047       149.00048
 117089748.53047  91238776.50548  22281435.71948  22281435.47947  22281436.22448
 117089751.02748       339.00048        79.00047       188.00048
 115936437.05747  90340085.72347  22061970.64548  22061970.01547  22061970.24647
 115936442.56648       311.00048        57.00047        94.00047
 106263240.72948  82802535.53349  20221219.23749  20221218.97148  20221219.46549
 106263241.22549       606.00049       463.00048       541.00049
 130560808.88446 101735702.81347  24844895.91148  24844895.28946  24844896.85747
 130560810.40048       101.00048        37.00046        64.00047
 105497279.41549  82205691.59849  20075457.37449  20075457.03049  20075457.12749
 105497281.91349       657.00049      1346.00049      1843.00049
 112482648.40448  87648825.84848  21404734.69248  21404733.25448  21404732.93748
 112482657.90348       405.00048       149.00048       240.00048
 118680087.46646  92477992.61747  22584070.79348  22584069.47046  22584070.25447
 118680094.95548       205.00048        42.00046        54.00047
 106516629.96948  83000005.66849  20269432.66449  20269432.09248  20269434.89549
 106516633.46449       842.00049       472.00048       678.00049
 23 06 21 06 06 40.0000000  0 10 01 02 07 13 14 15 17 19 21 30
 116237699.34447  90574847.08748  22119297.40348  22119297.17047  22119300.52248
 116237698.84748       332.00048        80.00047       225.00048
 116641751.73947  90889686.41748  22196184.20148  22196183.11147  22196182.03748
 116641758.24048       297.00048        72.00047       152.00048
 117386933.18547  91470348.96348  22337988.20948  22337987.69047  22337988.60148
 117386935.68748       331.00048        78.00047       180.00048
 115840544.10947  90265363.98347  22043722.75748  22043722.09547  22043722.34547
 115840549.60048       312.00048        59.00047        95.00047
 106080793.30448  82660368.76449  20186500.53449  20186500.35648  20186500.85049
 106080793.79949       610.00049       465.00048       564.00049
 130301599.84746 101533721.94247  24795569.81248  24795569.25846  24795570.72447
 130301601.35748       102.00048        38.00046        68.00047
 105593024.06449  82280297.85949  20093676.99349  20093676.59049  20093676.68649
 105593026.56149       654.00049      1339.00049      1801.00049
 112663033.30448  87789385.52948  21439060.76248  21439059.38148  21439059.05548
 112663042.80348       402.00048       147.00048       237.00048
 118498132.31946  92336209.49547  22549445.67448  22549444.56646  22549445.17447
 118498139.81748       210.00048        44.00046        56.00047
 106659833.54448  83111592.91849  20296683.39949  20296682.75348  20296685.57849
 106659837.03749       834.00049       464.00048       665.00049
 23 06 21 06 06 50.0000000  0 10 01 02 07 13 14 15 17 19 21 30
 116184840.12747  90533658.18348  22109238.61748  22109238.39647  22109241.64248
 116184839.63148       332.00048        82.00047       226.00048
 116500423.13647  90779560.31748  22169290.12848  22169289.19747  22169288.11248
 116500429.62548       301.00048        72.00047       152.00048
 117687938.09847  91704898.24348  22395267.45748  22395267.07747  22395267.83448
 117687940.60148       322.00048        71.00047       174.00048
 115749733.48247  90194602.50347  22026441.90248  22026441.11947  22026441.59347
 115749738.97048       312.00048        62.00047        98.00047
 105903644.30548  82522330.63249  20152790.20049  20152790.03248  20152790.44149
 105903644.79849       612.00049       469.00048       583.00049
 130044879.49546 101333680.27847  24746717.28148  24746716.97746  24746718.39247
 130044880.99548       105.00048        39.00046        73.00047
 105693047.18849  82358237.99049  20112710.65049  20112710.34649  20112710.40649
 105693049.68649       654.00049      1331.00049      1761.00049
 112846553.53248  87932388.32648  21473983.63748  21473982.06448  21473981.76648
 112846563.03148       398.00048       144.00048       233.00048
 118318128.85446  92195947.15247  22515192.25348  22515190.91846  22515191.68147
 118318136.34648       213.00048        44.00046        59.00047
 106809578.38148  83228277.24749  20325178.87849  20325178.25148  20325181.00349
 106809581.87649       827.00049       458.00048       654.00049
 23 06 21 06 07 00.0000000  0 10 01 02 07 13 14 15 17 19 21 30
 116134738.61447  90494618.13548  22099704.58148  22099704.19247  22099707.58848
 116134738.11748       332.00048        80.00047       230.00048
 116361431.01447  90671254.85948  22142840.74748  22142839.61047  22142838.65148
 116361437.51348       306.00048        74.00047       157.00048
 117992685.52747  91942363.75748  22453259.15048  22453258.65247  22453259.41748
 117992688.02148       314.00048        71.00047       168.00048
 115664032.61047  90127822.65548  22010133.59248  22010132.81447  22010133.26548
 115664038.11148       313.00048        60.00047       101.00048
 105731843.41848  82388459.85849  20120097.51149  20120097.31848  20120097.80149
 105731843.91049       615.00049       471.00048       608.00049
